business_id,name,longitude,latitude,name_pinyin,geometry
2071237,地铁通道广告,121.4768012652263,31.245407569181022,tōngdàoguǎnggào,POINT (121.4768012652263 31.24540756918102)
2075992,上海磁浮列车,121.79674012086355,31.15087027375992,shànghǎicífúlièchē,POINT (121.7967401208635 31.15087027375992)
2199364,陆家嘴地铁站,121.4975552656481,31.240111283530617,lùjiāzǔi,POINT (121.4975552656481 31.24011128353062)
2445064,京沪快线,121.34456385642429,31.194606150638958,jīnghùkuàixiàn,POINT (121.3445638564243 31.19460615063896)
4710716,虹口足球场地铁站,121.47502290035182,31.272510676184183,hóngkǒuzúqíucháng,POINT (121.4750229003518 31.27251067618418)
4740839,八号线老西门站,121.48082719054803,31.221625139043116,bālǎoxīmén,POINT (121.480827190548 31.22162513904312)
4740932,二号线中山公园站,121.40385098042015,31.21699314407338,èrzhōngshāngōngyuán,POINT (121.4038509804201 31.21699314407338)
5140311,地铁一号线共康路站,121.44238383542539,31.320952056205385,yīgòngkānglù,POINT (121.4423838354254 31.32095205620539)
5176033,地铁站黄兴路站,121.5236929280992,31.28073893236709,huángxīnglù,POINT (121.5236929280992 31.28073893236709)
5177564,地铁四号线曹杨路站,121.41314030753433,31.241347284738815,sìcáoyánglù,POINT (121.4131403075343 31.24134728473881)
5202672,地铁十号线豫园站,121.48515216264146,31.22424359015258,shíyùyuán,POINT (121.4851521626415 31.22424359015258)
5223676,地铁七号线罗南新村站,121.35263069898747,31.392843698185708,qīluōnánxīncūn,POINT (121.3526306989875 31.39284369818571)
5226288,地铁八号线曲阜路站,121.469045472968,31.244488360537655,bāqūfùlù,POINT (121.469045472968 31.24448836053766)
5231439,娄山关路地铁站,121.39926034315646,31.212833353572247,lóushānguānlù,POINT (121.3992603431565 31.21283335357225)
5236131,地铁七号线后滩站,121.46921202973441,31.174211670579744,qīhòutān,POINT (121.4692120297344 31.17421167057974)
5236217,静安寺地铁站（2/7号线）,121.44342450830065,31.225635282776373,jìngānsì,POINT (121.4434245083007 31.22563528277637)
5237935,桂林路地铁站,121.41418082175467,31.17679814715772,gùilínlù,POINT (121.4141808217547 31.17679814715772)
5240608,七号线肇嘉浜路站,121.46045192499014,31.205909958402614,qīzhàojiābānglù,POINT (121.4604519249901 31.20590995840261)
5244605,一号线徐家汇站,121.43216349242611,31.197231293180486,yīxújiāhùi,POINT (121.4321634924261 31.19723129318049)
5249432,地铁二号线东昌路站,121.49992386910574,31.239238771715552,èrdōngchānglù,POINT (121.4999238691057 31.23923877171555)
5252343,地铁六号线航津站,121.58272492421133,31.335783580923223,lìuhángjīn,POINT (121.5827249242113 31.33578358092322)
5252575,四平路地铁站,121.49710050567232,31.276949809605938,sìpínglù,POINT (121.4971005056723 31.27694980960594)
5255555,地铁三号线镇坪路站,121.44368258411181,31.25488149148297,sānzhènpínglù,POINT (121.4436825841118 31.25488149148297)
5255560,上海火车站地铁站,121.46916476185815,31.257300985952913,shànghǎihuǒchē,POINT (121.4691647618582 31.25730098595291)
5258206,地铁八号线浦江镇站,121.49752689901301,31.101142167523086,bāpǔjiāngzhèn,POINT (121.497526899013 31.10114216752309)
5261310,漕河泾开发区地铁站,121.39350415171853,31.172589651751696,cáohéjīngkāifāqū,POINT (121.3935041517185 31.1725896517517)
5261858,长江南路地铁站,121.48550406822943,31.33384705679373,chángjiāngnánlù,POINT (121.4855040682294 31.33384705679373)
5287406,东方体育中心地铁站,121.4759761183158,31.1555691337256,dōngfāngtǐyùzhōngxīn,POINT (121.4759761183158 31.1555691337256)
5294632,虹桥二号航站楼地铁站,121.32754107229395,31.195137352540595,hóngqiáoèrhàohánglóu,POINT (121.327541072294 31.19513735254059)
5299362,10号线伊犁路,121.4029219070746,31.203004650909456,yīlílù,POINT (121.4029219070746 31.20300465090946)
5306243,张江高科地铁站,121.58349640286131,31.204007949193926,zhāngjiānggāokē,POINT (121.5834964028613 31.20400794919393)
5306654,北翟路地铁车库,121.32990307777352,31.225758097657202,běidílùchēkù,POINT (121.3299030777735 31.2257580976572)
5306858,天潼路地铁站,121.47787491075502,31.245801465173006,tiāntónglù,POINT (121.477874910755 31.24580146517301)
5308354,九亭地铁站,121.31651088751624,31.140536591366327,jǐutíng,POINT (121.3165108875162 31.14053659136633)
5309041,徐家汇地铁站,121.43396699356246,31.195561922498566,xújiāhùi,POINT (121.4339669935625 31.19556192249857)
5322187,七号线新村路站,121.41808689301595,31.266525122063037,qīxīncūnlù,POINT (121.418086893016 31.26652512206304)
5322197,10号线新天地站,121.47051217081001,31.222176652511013,xīntiāndì,POINT (121.47051217081 31.22217665251101)
5324009,9号线商城路,121.51635234571535,31.233446467817,shāngchénglù,POINT (121.5163523457153 31.233446467817)
5326167,南京东路地铁站,121.47948101833565,31.239168096318405,nánjīngdōnglù,POINT (121.4794810183356 31.23916809631841)
5348763,11号线嘉定北路站,121.33793004578501,31.331763912196305,jiādìngběilù,POINT (121.337930045785 31.3317639121963)
5349083,轨交11号线李子园站,121.38725879702777,31.25965720598375,gǔijiāolǐzǐyuán,POINT (121.3872587970278 31.25965720598375)
5353901,地铁八号线曲阳路站,121.48090257186513,31.27884688912283,bāqūyánglù,POINT (121.4809025718651 31.27884688912283)
5365939,地铁八号线沈杜公路站,121.50787706724435,31.063561194265834,bāshěndùgōnglù,POINT (121.5078770672444 31.06356119426583)
5381818,人民广场地铁站,121.47090841318808,31.234555976281936,rénmínguǎngcháng,POINT (121.4709084131881 31.23455597628194)
5382218,耀华路地铁站,121.49021390435965,31.18057494246134,yàohuálù,POINT (121.4902139043596 31.18057494246134)
5387594,中潭路地铁站,121.43764904375837,31.256604533341562,zhōngtánlù,POINT (121.4376490437584 31.25660453334156)
5398221,嘉定新城地铁站,121.25025475610111,31.331603118844644,jiādìngxīnchéng,POINT (121.2502547561011 31.33160311884464)
5404583,地铁站西藏北路站,121.46449917320463,31.26567791270402,xīcángběilù,POINT (121.4644991732046 31.26567791270402)
5419004,淞滨路地铁站,121.48851140228118,31.37344271772402,sōngbīnlù,POINT (121.4885114022812 31.37344271772402)
5429143,东明路地铁站,121.50632222748743,31.174644060257574,dōngmínglù,POINT (121.5063222274874 31.17464406025757)
5435718,德平路地铁站,121.55988165916607,31.247491712039025,dépínglù,POINT (121.5598816591661 31.24749171203903)
5445333,地铁站宝山路站,121.47194422922237,31.25331137179471,bǎoshānlù,POINT (121.4719442292224 31.25331137179471)
5451458,长寿路地铁站,121.43340188887971,31.242110968666065,chángshòulù,POINT (121.4334018888797 31.24211096866606)
5452111,曹杨路地铁站,121.41276407582392,31.240446437639946,cáoyánglù,POINT (121.4127640758239 31.24044643763995)
5460569,七号线长寿路站,121.43623716100392,31.24496929143688,qīchángshòulù,POINT (121.4362371610039 31.24496929143688)
5474359,地铁站大世界,121.4747657372593,31.229178217332766,dàshìjiè,POINT (121.4747657372593 31.22917821733277)
5500777,虹桥路地铁站,121.41636095758922,31.198988766639626,hóngqiáolù,POINT (121.4163609575892 31.19898876663963)
5502133,地铁站中山公园,121.4122404411794,31.219960597512564,zhōngshāngōngyuán,POINT (121.4122404411794 31.21996059751256)
5506324,友谊路地铁站,121.47247304115112,31.404087281441363,yǒuyílù,POINT (121.4724730411511 31.40408728144136)
5513232,地铁站白银路站,121.2411546574688,31.346881930202837,báiyínlù,POINT (121.2411546574688 31.34688193020284)
5531773,三门路地铁站,121.5042028957835,31.31411515843416,sānménlù,POINT (121.5042028957835 31.31411515843416)
5535982,地铁站上大路站,121.40430248993627,31.316062812500906,shàngdàlù,POINT (121.4043024899363 31.31606281250091)
5543581,地铁梅陇基地,121.41976867862745,31.153054239229647,méilǒngjīdì,POINT (121.4197686786274 31.15305423922965)
5583211,地铁十一号线曹阳路站,121.41687835116593,31.23500407374621,shíyīcáoyánglù,POINT (121.4168783511659 31.23500407374621)
5597511,地铁站市光路站,121.52765200272334,31.324132328267048,shìguānglù,POINT (121.5276520027233 31.32413232826705)
5607193,地铁站西藏南路,121.48512380795972,31.20371532684587,xīcángnánlù,POINT (121.4851238079597 31.20371532684587)
5608797,地铁站彭浦新村,121.44389840815748,31.30895955044103,péngpǔxīncūn,POINT (121.4438984081575 31.30895955044103)
5609990,宋园路地铁站,121.40695390681198,31.198413191145224,sòngyuánlù,POINT (121.406953906812 31.19841319114522)
5610029,龙阳路地铁站,121.55275038715806,31.20547875763255,lóngyánglù,POINT (121.5527503871581 31.20547875763255)
5610047,松江新城地铁站,121.22558507622806,31.031952347480033,sōngjiāngxīnchéng,POINT (121.2255850762281 31.03195234748003)
5610052,松江大学城地铁站,121.22759450313083,31.055040341904473,sōngjiāngdàxuéchéng,POINT (121.2275945031308 31.05504034190447)
5610057,泗泾地铁站,121.25659965428386,31.120906661260744,sìjīng,POINT (121.2565996542839 31.12090666126074)
5610063,芳华路地铁站,121.5459952096995,31.194911120270312,fānghuálù,POINT (121.5459952096995 31.19491112027031)
5610066,塘桥地铁站,121.51433723899281,31.211783950286783,tángqiáo,POINT (121.5143372389928 31.21178395028678)
5610068,老西门地铁站,121.47865973865984,31.220894208195023,lǎoxīmén,POINT (121.4786597386598 31.22089420819502)
5628769,小南门地铁站,121.4938838654646,31.218565294366833,xiǎonánmén,POINT (121.4938838654646 31.21856529436683)
5630192,地铁站云台路站,121.49597428832467,31.184345291309757,yúntáilù,POINT (121.4959742883247 31.18434529130976)
5642524,地铁站共康路站,121.44257430792238,31.320562567899934,gòngkānglù,POINT (121.4425743079224 31.32056256789993)
5663683,地铁站春申路站,121.38090691386085,31.10011612345694,chūnshēnlù,POINT (121.3809069138609 31.10011612345694)
5718492,广兰路地铁站,121.61579308779538,31.212981294251584,guǎnglánlù,POINT (121.6157930877954 31.21298129425158)
5726224,宜山路地铁站,121.42264924247445,31.18837414835653,yíshānlù,POINT (121.4226492424744 31.18837414835653)
5861852,浦东大道地铁站,121.51561908356251,31.24237331283672,pǔdōngdàdào,POINT (121.5156190835625 31.24237331283672)
5998251,黄陂南路地铁站,121.4684552540442,31.22474384472818,huángbēinánlù,POINT (121.4684552540442 31.22474384472818)
6000559,地铁七号线场中路站,121.40911579324586,31.30536683995228,qīchángzhōnglù,POINT (121.4091157932459 31.30536683995228)
6008790,地铁站刘行站,121.35859298356618,31.359061091124335,líuxíng,POINT (121.3585929835662 31.35906109112434)
6043612,交通大学地铁站,121.43001913497818,31.20385388861368,jiāotōngdàxué,POINT (121.4300191349782 31.20385388861368)
6061264,世纪大道地铁站,121.52301489766543,31.230790091177717,shìjìdàdào,POINT (121.5230148976654 31.23079009117772)
6071406,浦东机场地铁站,121.80217245591095,31.15212859835275,pǔdōngjīcháng,POINT (121.8021724559109 31.15212859835275)
6077561,衡山路地铁站,121.44240378716533,31.206591375402407,héngshānlù,POINT (121.4424037871653 31.20659137540241)
6088744,上海大学地铁站,121.38435501101783,31.3223583337327,shànghǎidàxué,POINT (121.3843550110178 31.3223583337327)
6148748,锦绣路地铁站,121.53589222598106,31.189706527953238,jǐnxìulù,POINT (121.5358922259811 31.18970652795324)
6214310,临平路地铁站,121.49654961715117,31.26400766701659,línpínglù,POINT (121.4965496171512 31.26400766701659)
6214311,海伦路地铁站,121.4846271895217,31.260843476139403,hǎilúnlù,POINT (121.4846271895217 31.2608434761394)
6226427,高科西路地铁站,121.50538779616731,31.187759673177904,gāokēxīlù,POINT (121.5053877961673 31.1877596731779)
6271508,川沙地铁站,121.69388546146484,31.1886465816399,chuānshā,POINT (121.6938854614648 31.1886465816399)
6305966,上海图书馆地铁站,121.43932666749097,31.20965016012301,shànghǎitúshūguǎn,POINT (121.439326667491 31.20965016012301)
6350903,东安路地铁站,121.45042478205048,31.192714755684875,dōngānlù,POINT (121.4504247820505 31.19271475568488)
6818029,洞泾地铁站,121.22613086447656,31.08661534278923,dòngjīng,POINT (121.2261308644766 31.08661534278923)
7386790,安亭地铁站,121.15776666313248,31.29020341862099,āntíng,POINT (121.1577666631325 31.29020341862099)
7386892,上海汽车城地铁站,121.17605400294677,31.28756070281536,shànghǎiqìchēchéng,POINT (121.1760540029468 31.28756070281536)
7386915,上海赛车场地铁站,121.2209758192425,31.33372496145452,shànghǎisàichēcháng,POINT (121.2209758192425 31.33372496145452)
7387051,嘉定北地铁站,121.23283263983419,31.39356963284183,jiādìngběi,POINT (121.2328326398342 31.39356963284183)
7387114,嘉定西地铁站,121.2234040419791,31.379067962502628,jiādìngxī,POINT (121.2234040419791 31.37906796250263)
7387472,南翔地铁站,121.32006915703379,31.299049179701434,nánxiáng,POINT (121.3200691570338 31.29904917970143)
7387588,桃浦新村地铁站,121.3448695096525,31.283592105540365,táopǔxīncūn,POINT (121.3448695096525 31.28359210554036)
7387698,武威路地铁站,121.3606366158584,31.278440372044592,wǔwēilù,POINT (121.3606366158584 31.27844037204459)
7387791,祁连山路地铁站,121.37222059377851,31.273402469142283,qíliánshānlù,POINT (121.3722205937785 31.27340246914228)
7387908,李子园地铁站,121.38503907698974,31.27086846942162,lǐzǐyuán,POINT (121.3850390769897 31.27086846942162)
7387969,上海西站地铁站,121.39890582595676,31.264252875785488,shànghǎixī,POINT (121.3989058259568 31.26425287578549)
7388090,真如地铁站,121.40254344884787,31.252921313562794,zhēnrú,POINT (121.4025434488479 31.25292131356279)
7388173,枫桥路地铁站,121.40614952976505,31.244186278858624,fēngqiáolù,POINT (121.406149529765 31.24418627885862)
7388249,隆德路地铁站,121.41814989021655,31.232906166299323,lóngdélù,POINT (121.4181498902166 31.23290616629932)
7388296,航中路地铁站,121.34992046503848,31.167592708598512,hángzhōnglù,POINT (121.3499204650385 31.16759270859851)
7388355,紫藤路地铁站,121.35972141044061,31.171626598757364,zǐténglù,POINT (121.3597214104406 31.17162659875736)
7388421,龙溪路地铁站,121.37523391808008,31.196109057878203,lóngxīlù,POINT (121.3752339180801 31.1961090578782)
7388470,水城路地铁站,121.38751975660358,31.20128614723376,shǔichénglù,POINT (121.3875197566036 31.20128614723376)
7388511,伊犁路地铁站,121.39864133630978,31.200863120019864,yīlílù,POINT (121.3986413363098 31.20086312001986)
7388580,新天地地铁站,121.47054260911847,31.218222606232743,xīntiāndì,POINT (121.4705426091185 31.21822260623274)
7388679,四川北路地铁站,121.47955001116712,31.253769739859248,sìchuānběilù,POINT (121.4795500111671 31.25376973985925)
7388754,邮电新村地铁站,121.4916813705786,31.272469460229903,yóudiànxīncūn,POINT (121.4916813705786 31.2724694602299)
7388847,同济大学地铁站,121.50141550433959,31.283315071186706,tóngjìdàxué,POINT (121.5014155043396 31.28331507118671)
7389169,五角场地铁站,121.5104702773497,31.300691777514203,wǔjiǎocháng,POINT (121.5104702773497 31.3006917775142)
7389189,江湾体育场地铁站,121.51030908813537,31.308068428990907,jiāngwāntǐyùcháng,POINT (121.5103090881354 31.30806842899091)
7389211,殷高东路地铁站,121.50210056937361,31.323417421329868,yīngāodōnglù,POINT (121.5021005693736 31.32341742132987)
7389227,新江湾城地铁站,121.50214408592721,31.330965793612695,xīnjiāngwānchéng,POINT (121.5021440859272 31.33096579361269)
7389285,杨高中路地铁站,121.54434310211535,31.229705027965565,yánggāozhōnglù,POINT (121.5443431021153 31.22970502796557)
7389331,商城路地铁站,121.51143546787664,31.231786171834635,shāngchénglù,POINT (121.5114354678766 31.23178617183464)
7389360,马当路地铁站,121.47191775453908,31.21109080660841,mǎdānglù,POINT (121.4719177545391 31.21109080660841)
7389412,打浦桥地铁站,121.4641931729784,31.20798351766547,dǎpǔqiáo,POINT (121.4641931729784 31.20798351766547)
7393482,南陈路地铁站,121.39246625541075,31.323031852684018,nánchénlù,POINT (121.3924662554108 31.32303185268402)
7393684,行知路地铁站,121.4172342398546,31.28644200751019,xíngzhīlù,POINT (121.4172342398546 31.28644200751019)
7393718,大华三路地铁站,121.41848655884175,31.275440700468973,dàhuásānlù,POINT (121.4184865588417 31.27544070046897)
7393786,新村路地铁站,121.41826709389834,31.26649929808944,xīncūnlù,POINT (121.4182670938983 31.26649929808944)
7393821,岚皋路地铁站,121.41710666488046,31.257089346873773,lángāolù,POINT (121.4171066648805 31.25708934687377)
7393860,昌平路地铁站,121.43757065406992,31.236148581899265,chāngpínglù,POINT (121.4375706540699 31.23614858189926)
7393898,肇嘉浜路地铁站,121.44570605609074,31.201424439099764,zhàojiābānglù,POINT (121.4457060560907 31.20142443909976)
7393933,龙华中路地铁站,121.45611093493058,31.1861830691344,lónghuázhōnglù,POINT (121.4561109349306 31.1861830691344)
7394035,杨高南路地铁站,121.51945251419006,31.18976511759875,yánggāonánlù,POINT (121.5194525141901 31.18976511759875)
7394099,花木路地铁站,121.5585817612968,31.215923368344086,huāmùlù,POINT (121.5585817612968 31.21592336834409)
7398999,源深体育中心地铁站,121.53086966058231,31.232766612170415,yuánshēntǐyùzhōngxīn,POINT (121.5308696605823 31.23276661217042)
7399069,灵岩南路地铁站,121.49041710632181,31.15136363383784,língyánnánlù,POINT (121.4904171063218 31.15136363383784)
7399094,上南路地铁站,121.50208408831652,31.150861823189775,shàngnánlù,POINT (121.5020840883165 31.15086182318977)
7399178,高青路地铁站,121.51167721105796,31.161593436121212,gāoqīnglù,POINT (121.511677211058 31.16159343612121)
7399222,上海儿童医学中心地铁站,121.51949527155467,31.206313095487943,shànghǎiértóngyìxuézhōngxīn,POINT (121.5194952715547 31.20631309548794)
7399239,民生路地铁站,121.5386270205377,31.237758861691965,mínshēnglù,POINT (121.5386270205377 31.23775886169197)
7399262,北洋泾路地铁站,121.5479963100498,31.241350040942738,běiyángjīnglù,POINT (121.5479963100498 31.24135004094274)
7399285,云山路地铁站,121.5693770863429,31.253128347223583,yúnshānlù,POINT (121.5693770863429 31.25312834722358)
7399346,金桥路地铁站,121.57728641167452,31.25889291415764,jīnqiáolù,POINT (121.5772864116745 31.25889291415764)
7399363,博兴路地铁站,121.58264062298633,31.266247941112955,bóxīnglù,POINT (121.5826406229863 31.26624794111295)
7399382,五莲路地铁站,121.58367085030171,31.272663671800572,wǔliánlù,POINT (121.5836708503017 31.27266367180057)
7399405,巨峰路地铁站,121.58402034232462,31.28175600811825,jùfēnglù,POINT (121.5840203423246 31.28175600811825)
7399470,东靖路地铁站,121.58471988168075,31.29300768961884,dōngjìnglù,POINT (121.5847198816808 31.29300768961884)
7399495,五洲大道地铁站,121.58504908307538,31.305216973752227,wǔzhōudàdào,POINT (121.5850490830754 31.30521697375223)
7399516,洲海路地铁站,121.5851483975906,31.31424853279474,zhōuhǎilù,POINT (121.5851483975906 31.31424853279474)
7399562,外高桥保税区南地铁站,121.59780156977783,31.323678088125597,wàigāoqiáobǎoshùiqūnán,POINT (121.5978015697778 31.3236780881256)
7399639,外高桥保税区北地铁站,121.5824234372406,31.35091517738086,wàigāoqiáobǎoshùiqūběi,POINT (121.5824234372406 31.35091517738086)
7399662,港城路地铁站,121.5706603841277,31.355687702869428,gǎngchénglù,POINT (121.5706603841277 31.35568770286943)
7399758,文井路地铁站,121.37595969630985,31.005442589891523,wénjǐnglù,POINT (121.3759596963098 31.00544258989152)
7399898,华宁路地铁站,121.39058912246854,31.00932843624948,huánínglù,POINT (121.3905891224685 31.00932843624948)
7399916,金平路地铁站,121.40553934051518,31.012965530979713,jīnpínglù,POINT (121.4055393405152 31.01296553097971)
7399941,东川路地铁站,121.41554171558319,31.01944344827083,dōngchuānlù,POINT (121.4155417155832 31.01944344827083)
7399961,剑川路地铁站,121.41183776933374,31.028201675956925,jiànchuānlù,POINT (121.4118377693337 31.02820167595693)
7399982,北桥地铁站,121.40545637888437,31.04678075753344,běiqiáo,POINT (121.4054563788844 31.04678075753344)
7400119,颛桥地铁站,121.39733278248735,31.068720818072084,zhuānqiáo,POINT (121.3973327824874 31.06872081807208)
7400253,银都路地铁站,121.3855943731182,31.091318186108158,yíndūlù,POINT (121.3855943731182 31.09131818610816)
7400502,佘山地铁站,121.2245780222379,31.10687888546942,shéshān,POINT (121.2245780222379 31.10687888546942)
7400521,外环路地铁站,121.3883801197924,31.12342214812074,wàihuánlù,POINT (121.3883801197924 31.12342214812074)
7400644,锦江乐园地铁站,121.40936004778185,31.143512445229003,jǐnjiānglèyuán,POINT (121.4093600477818 31.143512445229)
7400664,中春路地铁站,121.33547695878198,31.152294215545336,zhōngchūnlù,POINT (121.335476958782 31.15229421554534)
7400806,七宝地铁站,121.34443736276309,31.157095472654582,qībǎo,POINT (121.3444373627631 31.15709547265458)
7400944,星中路地铁站,121.36540950529489,31.16033186769147,xīngzhōnglù,POINT (121.3654095052949 31.16033186769147)
7400968,石龙路地铁站,121.43665548834252,31.158563149064122,shílónglù,POINT (121.4366554883425 31.15856314906412)
7401021,合川路地铁站,121.38135058984119,31.168779935650797,héchuānlù,POINT (121.3813505898412 31.1687799356508)
7401043,漕宝路地铁站,121.4303826780742,31.170189258509684,cáobǎolù,POINT (121.4303826780742 31.17018925850968)
7401079,龙漕路地铁站,121.43974083766496,31.171800740473934,lóngcáolù,POINT (121.439740837665 31.17180074047393)
7401134,漕溪路地铁站,121.43438928893241,31.17839119413993,cáoxīlù,POINT (121.4343892889324 31.17839119413993)
7401159,上海体育馆地铁站,121.4336173849336,31.183387438702177,shànghǎitǐyùguǎn,POINT (121.4336173849336 31.18338743870218)
7401177,上海体育场地铁站,121.43883353050364,31.187437187282043,shànghǎitǐyùcháng,POINT (121.4388335305036 31.18743718728204)
7401222,鲁班路地铁站,121.47148720437492,31.200863577342982,lǔbānlù,POINT (121.4714872043749 31.20086357734298)
7401336,世纪公园地铁站,121.54673567964349,31.211574479783014,shìjìgōngyuán,POINT (121.5467356796435 31.21157447978301)
7401382,延安西路地铁站,121.41250635657097,31.211869628949664,yánānxīlù,POINT (121.412506356571 31.21186962894966)
7401517,蓝村路地铁站,121.5236683801339,31.21470842033038,láncūnlù,POINT (121.5236683801339 31.21470842033038)
7401537,常熟路地铁站,121.44641259215433,31.215305184841426,chángshúlù,POINT (121.4464125921543 31.21530518484143)
7401558,威宁路地铁站,121.38236561483222,31.2169173940329,wēinínglù,POINT (121.3823656148322 31.2169173940329)
7401580,北新泾地铁站,121.36938891228505,31.218698073416878,běixīnjīng,POINT (121.369388912285 31.21869807341688)
7401602,陕西南路地铁站,121.45542616816726,31.219023421820626,shǎnxīnánlù,POINT (121.4554261681673 31.21902342182063)
7401732,淞虹路地铁站,121.35439248246676,31.220177533669172,sōnghónglù,POINT (121.3543924824668 31.22017753366917)
7401755,江苏路地铁站,121.42672225145583,31.221299039660067,jiāngsūlù,POINT (121.4267222514558 31.22129903966007)
7401772,上海科技馆地铁站,121.53870354330246,31.222052332957432,shànghǎikējìguǎn,POINT (121.5387035433025 31.22205233295743)
7401793,浦电路地铁站,121.52767037759816,31.224814174313014,pǔdiànlù,POINT (121.5276703775982 31.22481417431301)
7401909,南京西路地铁站,121.45513426726201,31.231543868104772,nánjīngxīlù,POINT (121.455134267262 31.23154386810477)
7401982,金沙江路地铁站,121.40837152648976,31.23455661091613,jīnshājiānglù,POINT (121.4083715264898 31.23455661091613)
7402061,东昌路地铁站,121.51062229178895,31.235662026687564,dōngchānglù,POINT (121.5106222917889 31.23566202668756)
7402085,新闸路地铁站,121.46345810928896,31.24042338603929,xīnzhálù,POINT (121.463458109289 31.24042338603929)
7402172,汉中路地铁站,121.45443125094766,31.243699662269968,hànzhōnglù,POINT (121.4544312509477 31.24369966226997)
7402316,曲阜路地铁站,121.46746037426499,31.244332155997775,qūfùlù,POINT (121.467460374265 31.24433215599777)
7402342,镇坪路地铁站,121.42535785508782,31.248164966182717,zhènpínglù,POINT (121.4253578550878 31.24816496618272)
7402395,莲花路地铁站,121.39737727027487,31.132215493022567,liánhuālù,POINT (121.3973772702749 31.13221549302257)
7402591,中兴路地铁站,121.46445995804376,31.255119408930987,zhōngxīnglù,POINT (121.4644599580438 31.25511940893099)
7402610,中山北路地铁站,121.45442979887235,31.26049221026257,zhōngshānběilù,POINT (121.4544297988724 31.26049221026257)
7402749,大连路地铁站,121.50851280584517,31.26002196445722,dàliánlù,POINT (121.5085128058452 31.26002196445722)
7402898,东宝兴路地铁站,121.47547531126295,31.262246356306292,dōngbǎoxīnglù,POINT (121.475475311263 31.26224635630629)
7403125,延长路地铁站,121.45041775962811,31.273877364436554,yánchánglù,POINT (121.4504177596281 31.27387736443655)
7403151,鞍山新村地铁站,121.50558113326937,31.27492994445539,ānshānxīncūn,POINT (121.5055811332694 31.27492994445539)
7403268,曲阳路地铁站,121.48651237256355,31.27847153369284,qūyánglù,POINT (121.4865123725636 31.27847153369284)
7403317,上海马戏城地铁站,121.44682803362926,31.279951122530104,shànghǎimǎxìchéng,POINT (121.4468280336293 31.2799511225301)
7403335,赤峰路地铁站,121.47749038176426,31.283343169887186,chìfēnglù,POINT (121.4774903817643 31.28334316988719)
7403449,大柏树地铁站,121.47849319000836,31.290842985507357,dàbǎishù,POINT (121.4784931900084 31.29084298550736)
7403470,黄兴公园地铁站,121.52866734517333,31.298484762189993,huángxīnggōngyuán,POINT (121.5286673451733 31.29848476218999)
7403495,翔殷路地铁站,121.52767347807129,31.307348730131473,xiángyīnlù,POINT (121.5276734780713 31.30734873013147)
7403515,江湾镇地铁站,121.47948513185707,31.308238968980486,jiāngwānzhèn,POINT (121.4794851318571 31.30823896898049)
7403613,嫩江路地铁站,121.52766262235131,31.317144960216357,nènjiānglù,POINT (121.5276626223513 31.31714496021636)
7403821,殷高西路地铁站,121.47949397370587,31.32213373546021,yīngāoxīlù,POINT (121.4794939737059 31.32213373546021)
7403861,通河新村地铁站,121.43736180099646,31.33313843346102,tōnghéxīncūn,POINT (121.4373618009965 31.33313843346102)
7403882,呼兰路地铁站,121.43337315820085,31.341918751288013,hūlánlù,POINT (121.4333731582009 31.34191875128801)
7403931,张华浜地铁站,121.49321403854347,31.36468754233632,zhānghuábāng,POINT (121.4932140385435 31.36468754233632)
7404068,共富新村地铁站,121.42936468433028,31.357227595713688,gòngfùxīncūn,POINT (121.4293646843303 31.35722759571369)
7404097,宝安公路地铁站,121.42634841097461,31.373608299011227,bǎoāngōnglù,POINT (121.4263484109746 31.37360829901123)
7404123,水产路地铁站,121.48351281059783,31.383124963724534,shǔichǎnlù,POINT (121.4835128105978 31.38312496372453)
7404150,友谊西路地铁站,121.42335310904598,31.384491358831003,yǒuyíxīlù,POINT (121.423353109046 31.384491358831)
7404182,宝杨路地铁站,121.47495186956569,31.39829484205246,bǎoyánglù,POINT (121.4749518695657 31.39829484205246)
7404203,富锦路地铁站,121.42010807344782,31.394170045667206,fùjǐnlù,POINT (121.4201080734478 31.39417004566721)
7404223,铁力路地铁站,121.4574554842951,31.410000403128052,tiělìlù,POINT (121.4574554842951 31.41000040312805)
7404245,江杨北路地铁站,121.43537117157501,31.40891126103869,jiāngyángběilù,POINT (121.435371171575 31.40891126103869)
7404867,远东大道地铁站,121.75074817782328,31.201405333639872,yuǎndōngdàdào,POINT (121.7507481778233 31.20140533363987)
7405104,杨思地铁站,121.4898400326092,31.163263691605287,yángsī,POINT (121.4898400326092 31.16326369160529)
7407742,上海动物园地铁站,121.36432832090384,31.192397916258855,shànghǎidòngwùyuán,POINT (121.3643283209038 31.19239791625886)
7409004,美兰湖地铁站,121.34574323737674,31.40397698546122,měilánhú,POINT (121.3457432373767 31.40397698546122)
7410369,金科路地铁站,121.59795127770866,31.206405521347545,jīnkēlù,POINT (121.5979512777087 31.20640552134754)
7410795,华夏东路地铁站,121.6765455394003,31.198905516176115,huáxiàdōnglù,POINT (121.6765455394003 31.19890551617612)
7411054,虹桥1号航站楼地铁站,121.34321660517755,31.19514325090788,hóngqiáohàohánglóu,POINT (121.3432166051775 31.19514325090788)
7411617,顾村公园地铁站,121.36833914252644,31.346666571458602,gùcūngōngyuán,POINT (121.3683391425264 31.3466665714586)
7414621,国权路地铁站,121.50578545217279,31.291613664207805,guóquánlù,POINT (121.5057854521728 31.29161366420781)
7729936,海天三路地铁站,121.79271971760835,31.17040881880562,hǎitiānsānlù,POINT (121.7927197176083 31.17040881880562)
7730708,创新中路地铁站,121.67027624335036,31.215416449585405,chuàngxīnzhōnglù,POINT (121.6702762433504 31.2154164495854)
7731231,昌吉东路地铁站,121.19598078277104,31.295819972212236,chāngjídōnglù,POINT (121.195980782771 31.29581997221224)
8820066,真北路地铁站,121.3769588288461,31.234110392912267,zhēnběilù,POINT (121.3769588288461 31.23411039291227)
8820069,丰庄地铁站,121.34986880218183,31.245575036023194,fēngzhuāng,POINT (121.3498688021818 31.24557503602319)
8935794,中华艺术宫地铁站,121.48912949041247,31.186870538676217,zhōnghuáyìzhúgōng,POINT (121.4891294904125 31.18687053867622)
13932969,上海11号线安亭站,121.15788131343648,31.296943923936873,shànghǎiāntíng,POINT (121.1578813134365 31.29694392393687)
14727513,地铁耀华路站,121.49027412146765,31.180558130804542,yàohuálù,POINT (121.4902741214676 31.18055813080454)
15112954,龙耀路地铁站,121.45545518347913,31.161662030814803,lóngyàolù,POINT (121.4554551834791 31.1616620308148)
15856547,莘庄地铁站,121.38134545690258,31.112834775429434,shēnzhuāng,POINT (121.3813454569026 31.11283477542943)
16981351,上海地铁,121.47685143761404,31.245396717295122,shànghǎi,POINT (121.476851437614 31.24539671729512)
17197002,22号线,121.35440433090886,30.73376914630125,,POINT (121.3544043309089 30.73376914630125)
17213277,惠南地铁站,121.75887635731307,31.055997367298282,hùinán,POINT (121.7588763573131 31.05599736729828)
17611827,金运路地铁站,121.31558817510053,31.242995540827806,jīnyùnlù,POINT (121.3155881751005 31.24299554082781)
17656199,野生动物园站16号线,121.69590717835133,31.0107507199231,yěshēngdòngwùyuán,POINT (121.6959071783513 31.0107507199231)
17661648,16号线滴水湖站,121.92578985433835,30.90931403846845,dīshǔihú,POINT (121.9257898543383 30.90931403846845)
17675969,汶水路地铁站,121.44560373234553,31.294788542792123,wènshǔilù,POINT (121.4456037323455 31.29478854279212)
17684468,罗山路站11号线,121.61103517786152,31.156728475356758,luōshānlù,POINT (121.6110351778615 31.15672847535676)
17737604,九号线泗泾站,121.22189526911166,31.113613008680712,jǐusìjīng,POINT (121.2218952691117 31.11361300868071)
17760754,神州租车11号线南翔地铁站点,121.31647739201131,31.29836430490758,shénzhōuzūchēnánxiángdiǎn,POINT (121.3164773920113 31.29836430490758)
17805425,盛洁汤包嘉定地铁,121.48200937317668,31.244463047763688,shèngjiétāngbāojiādìng,POINT (121.4820093731767 31.24446304776369)
17827020,地铁科技馆,121.48200937317668,31.244463047763688,kējìguǎn,POINT (121.4820093731767 31.24446304776369)
17864213,神州租车嘉定地铁西站点,121.22336395410417,31.379718732197972,shénzhōuzūchējiādìngxīdiǎn,POINT (121.2233639541042 31.37971873219797)
17869771,虹桥火车站地铁站,121.31696521273614,31.194655847901082,hóngqiáohuǒchē,POINT (121.3169652127361 31.19465584790108)
17869782,唐镇地铁站,121.65176179813739,31.21597818559744,tángzhèn,POINT (121.6517617981374 31.21597818559744)
17869841,凌空路地铁站,121.71883365634756,31.194369100904108,língkōnglù,POINT (121.7188336563476 31.19436910090411)
17869868,淞发路地铁站,121.49598051491103,31.347043699026543,sōngfālù,POINT (121.495980514911 31.34704369902654)
17870198,杨树浦路地铁站,121.51286858984984,31.25410820808535,yángshùpǔlù,POINT (121.5128685898498 31.25410820808535)
17870244,南浦大桥地铁站,121.49497347877309,31.21041245774893,nánpǔdàqiáo,POINT (121.4949734787731 31.21041245774893)
17870261,闵行开发区地铁站,121.36556292506941,31.002762296342734,mǐnxíngkāifāqū,POINT (121.3655629250694 31.00276229634273)
17870319,华夏西路地铁站,121.51002724121116,31.151916708469695,huáxiàxīlù,POINT (121.5100272412112 31.1519167084697)
17870343,大场镇地铁站,121.41248914175335,31.294469116645974,dàchángzhèn,POINT (121.4124891417534 31.29446911664597)
17870465,长清路地铁站,121.48189473544195,31.17677325624037,chángqīnglù,POINT (121.481894735442 31.17677325624037)
17870523,延吉中路地铁站,121.53061907076922,31.29043093911607,yánjízhōnglù,POINT (121.5306190707692 31.29043093911607)
17870528,江浦路地铁站,121.51354903728797,31.276874357064102,jiāngpǔlù,POINT (121.513549037288 31.2768743570641)
17876740,凌兆新村地铁站,121.48535478296354,31.1429730252817,língzhàoxīncūn,POINT (121.4853547829635 31.1429730252817)
17876748,联航路地铁站,121.50593913885558,31.07614630201933,liánhánglù,POINT (121.5059391388556 31.07614630201933)
17876760,嘉善路地铁站,121.45625976628376,31.20470427807231,jiāshànlù,POINT (121.4562597662838 31.20470427807231)
17876780,松江体育中心地铁站,121.2261165871539,31.018468617208956,sōngjiāngtǐyùzhōngxīn,POINT (121.2261165871539 31.01846861720896)
17876794,醉白池地铁站,121.22504109034499,31.003238795418515,zùibáichí,POINT (121.225041090345 31.00323879541851)
17876830,上海游泳馆地铁站,121.43693415231058,31.180586310032698,shànghǎiyóuyǒngguǎn,POINT (121.4369341523106 31.1805863100327)
17876848,龙华地铁站,121.4480902843209,31.17484668815849,lónghuá,POINT (121.4480902843209 31.17484668815849)
17876854,云锦路地铁站,121.45407673532459,31.168548239988837,yúnjǐnlù,POINT (121.4540767353246 31.16854823998884)
17967128,金京路地铁,121.61269971595362,31.28198700261273,jīnjīnglù,POINT (121.6126997159536 31.28198700261273)
18002798,地铁十一号线李子园站,121.38502908293515,31.270871473521108,shíyīlǐzǐyuán,POINT (121.3850290829351 31.27087147352111)
18358241,三林地铁站,121.50619426704806,31.144981131783428,sānlín,POINT (121.5061942670481 31.14498113178343)
18389382,金沙江西路地铁站,121.33073970898421,31.242898613300927,jīnshājiāngxīlù,POINT (121.3307397089842 31.24289861330093)
18398459,陆家浜路地铁站,121.48150519651328,31.214105686275737,lùjiābānglù,POINT (121.4815051965133 31.21410568627574)
18398474,成山路地铁站,121.49163962458648,31.173393855018112,chéngshānlù,POINT (121.4916396245865 31.17339385501811)
18399952,浦三路地铁站,121.53448718352114,31.152910048342505,pǔsānlù,POINT (121.5344871835211 31.15291004834251)
18399991,罗山路地铁站,121.5886333609175,31.156219820748625,luōshānlù,POINT (121.5886333609175 31.15621982074862)
18423803,地铁通道广告,121.45142258853247,31.24885247029931,tōngdàoguǎnggào,POINT (121.4514225885325 31.24885247029931)
19001463,祁华路地铁站,121.36893034901352,31.32379904144514,qíhuálù,POINT (121.3689303490135 31.32379904144514)
19005093,武宁路地铁站,121.42529286235751,31.23547763787868,wǔnínglù,POINT (121.4252928623575 31.23547763787868)
